{"Last-Modified": "Thu, 25 Aug 2011 08:08:09 GMT", "type": "FeatureCollection", "features": [{"geometry": {"type": "Point", "coordinates": [146989.81180973249, 169526.92235386744]}, "type": "Feature", "properties": {"FREEBS": 10, "NAME": "002 - ELOY/ELOY", "STATE": "open", "STREET": "ELOY - RUE ELOY / ELOYSTRAAT", "FREEBK": 15, "TOTBS": 25, "ID": 2}}, {"geometry": {"type": "Point", "coordinates": [148103.74167421856, 171423.28643594868]}, "type": "Feature", "properties": {"FREEBS": 16, "NAME": "003 - PORTE DE FLANDRES / VLAAMSEPOORT", "STATE": "open", "STREET": "PORTE DE FLANDRES/VLAAMSEPOORT - BLD DE NIEUPORT/NIEUWPOORTLAAN 1", "FREEBK": 9, "TOTBS": 25, "ID": 3}}, {"geometry": {"type": "Point", "coordinates": [148235.44018985613, 170841.78552807402]}, "type": "Feature", "properties": {"FREEBS": 16, "NAME": "004 - JARDIN AUX FLEURS / BLOEMENHOF", "STATE": "open", "STREET": "JARDIN AUX FLEURS/BLOEMENHOF - PLACE DU JARDIN AUX FLEURS/BLOEMENHOFPLEIN", "FREEBK": 4, "TOTBS": 20, "ID": 4}}, {"geometry": {"type": "Point", "coordinates": [148636.88217288684, 170943.67701109312]}, "type": "Feature", "properties": {"FREEBS": 17, "NAME": "005 - BOURSE / BEURS", "STATE": "open", "STREET": "BOURSE/BEURS - RUE PAUL DEVAUX/PAUL DEVAUXSTRAAT", "FREEBK": 8, "TOTBS": 25, "ID": 5}}, {"geometry": {"type": "Point", "coordinates": [149135.34157663604, 170547.55835883785]}, "type": "Feature", "properties": {"FREEBS": 0, "NAME": "006 - GARE CENTRALE/CENTRAAL STATION", "STATE": "closed", "STREET": "GARE CENTRALE/CENTRAAL STATION - BLD DE L'IMPERATRICE/KEIZERINLAAN", "FREEBK": 0, "TOTBS": 30, "ID": 6}}, {"geometry": {"type": "Point", "coordinates": [149541.6486188444, 170657.1940798955]}, "type": "Feature", "properties": {"FREEBS": 0, "NAME": "007 - PARC / PARK", "STATE": "closed", "STREET": "PARC/PARK - RUE ROYALE  (FACE N\u00b066-68)/KONINGSSTRAAT (TEGENOVER N\u00b066-68)", "FREEBK": 0, "TOTBS": 25, "ID": 7}}, {"geometry": {"type": "Point", "coordinates": [149988.01166474522, 170586.42905012053]}, "type": "Feature", "properties": {"FREEBS": 4, "NAME": "008 - ARTS-LOI / KUNST-WET", "STATE": "open", "STREET": "ARTS-LOI/KUNST-WET -  AVENUE DES ARTS/KUNSTLAAN 24", "FREEBK": 17, "TOTBS": 21, "ID": 8}}, {"geometry": {"type": "Point", "coordinates": [148330.51778576043, 170404.46789187752]}, "type": "Feature", "properties": {"FREEBS": 19, "NAME": "009 - ANNEESENS / ANNEESSENS", "STATE": "open", "STREET": "ANNEESENS - BLD MAURICE LEMONNIER/MAURICE LEMONNIERLAAN 42-44-46", "FREEBK": 5, "TOTBS": 25, "ID": 9}}, {"geometry": {"type": "Point", "coordinates": [148800.99326595748, 170103.99354511779]}, "type": "Feature", "properties": {"FREEBS": 18, "NAME": "010 - CHAPELLE / KAPEL", "STATE": "open", "STREET": "CHAPELLE/KAPEL - PLACE DE LA CHAPELLE/KAPELLEPLEIN", "FREEBK": 2, "TOTBS": 20, "ID": 10}}, {"geometry": {"type": "Point", "coordinates": [149163.64302592713, 170009.92806286737]}, "type": "Feature", "properties": {"FREEBS": 0, "NAME": "011 - SABLON / ZAVEL", "STATE": "open", "STREET": "SABLON/ZAVEL - RUE DE LA REGENCE/REGENTSCHAPSSTRAAT 20", "FREEBK": 17, "TOTBS": 17, "ID": 11}}, {"geometry": {"type": "Point", "coordinates": [149833.62195867251, 170012.20610411279]}, "type": "Feature", "properties": {"FREEBS": 1, "NAME": "012 - TRONE / TROON", "STATE": "open", "STREET": "TRONE/TROON - AV. DES ARTS/KUNSTLAAN, 58", "FREEBK": 17, "TOTBS": 21, "ID": 12}}, {"geometry": {"type": "Point", "coordinates": [148068.08251446357, 169975.05582913011]}, "type": "Feature", "properties": {"FREEBS": 16, "NAME": "013 - LEMONNIER / LEMONNIER", "STATE": "open", "STREET": "LEMONNIER - BLD. MAURICE LEMONNIER/DE MAURICE LEMONNIERLAAN 202-204-206", "FREEBK": 9, "TOTBS": 25, "ID": 13}}, {"geometry": {"type": "Point", "coordinates": [149536.23178437742, 169845.69418590982]}, "type": "Feature", "properties": {"FREEBS": 5, "NAME": "014 - PORTE DE NAMUR / NAAMSEPOORT", "STATE": "open", "STREET": "PORTE DE NAMUR/NAAMSEPOORT - BLD DU REGENT /REGENTLAAN 1", "FREEBK": 18, "TOTBS": 23, "ID": 14}}, {"geometry": {"type": "Point", "coordinates": [149067.06166478197, 169505.80162610859]}, "type": "Feature", "properties": {"FREEBS": 9, "NAME": "016 - LOUISE / LOUIZA", "STATE": "open", "STREET": "LOUISE/LOUIZA - PLACE LOUISE/LOUIZAPLEIN 53", "FREEBK": 21, "TOTBS": 30, "ID": 16}}, {"geometry": {"type": "Point", "coordinates": [150619.71624304666, 170811.95660915039]}, "type": "Feature", "properties": {"FREEBS": 12, "NAME": "018 - GUTENBERG / GUTENBERG", "STATE": "open", "STREET": "GUTENBERG - SQUARE GUTENBERG (FACE N\u00b0 5)/GUTENBERGSSQUARE (TEGENOVER N\u00b0 5)", "FREEBK": 13, "TOTBS": 25, "ID": 18}}, {"geometry": {"type": "Point", "coordinates": [148523.21808263889, 168614.55336428713]}, "type": "Feature", "properties": {"FREEBS": 4, "NAME": "019 - PLACE MORICHAR/MORICHARPLEIN", "STATE": "open", "STREET": "PLACE MORICHAR / MORICHARPLEIN - RUE DES ETUDIANTS/ STUDENTENSTRAAT 32 - 34", "FREEBK": 16, "TOTBS": 20, "ID": 19}}, {"geometry": {"type": "Point", "coordinates": [149427.80940779336, 170356.18693196587]}, "type": "Feature", "properties": {"FREEBS": 0, "NAME": "020 - PALAIS ROYAL / KONINKLIJK PALEIS", "STATE": "closed", "STREET": "PALAIS ROYAL/KONINGSSTRAAT PALEIS - RUE ROYALE (DEVANT N\u00b014)/KONINKLIJKESTRAAT (N\u00b014)", "FREEBK": 0, "TOTBS": 20, "ID": 20}}, {"geometry": {"type": "Point", "coordinates": [148874.97968197361, 171280.23741706181]}, "type": "Feature", "properties": {"FREEBS": 10, "NAME": "021 - DE BROUCKERE / DE BROUCKERE", "STATE": "open", "STREET": "DE BROUCKERE - PLACE DE BROUCKERE/DE BROUCKEREPLEIN", "FREEBK": 13, "TOTBS": 23, "ID": 21}}, {"geometry": {"type": "Point", "coordinates": [149077.92925269445, 171730.72549868561]}, "type": "Feature", "properties": {"FREEBS": 0, "NAME": "022 - JACQMAIN / JACQMAIN", "STATE": "open", "STREET": "JACQMAIN - BLD. D'ANVERS/ANTWERPSELAAN", "FREEBK": 15, "TOTBS": 15, "ID": 22}}, {"geometry": {"type": "Point", "coordinates": [149045.0722764224, 170658.59146260004]}, "type": "Feature", "properties": {"FREEBS": 3, "NAME": "023 - AGORA / AGORA", "STATE": "open", "STREET": "AGORA - PLACE AGORA/AGORAPLEIN 120", "FREEBK": 16, "TOTBS": 19, "ID": 23}}, {"geometry": {"type": "Point", "coordinates": [149260.42497613427, 171639.59179779794]}, "type": "Feature", "properties": {"FREEBS": 9, "NAME": "024 - ROGIER / ROGIER", "STATE": "open", "STREET": "ROGIER - BOULEVARD DU JARDIN BOTANIQUE/KRUIDTUINLAAN", "FREEBK": 16, "TOTBS": 25, "ID": 24}}, {"geometry": {"type": "Point", "coordinates": [147875.77053841567, 170450.01481338311]}, "type": "Feature", "properties": {"FREEBS": 9, "NAME": "025 - PORTE D'ANDERLECHT / ANDERLECHTSEPOORT", "STATE": "open", "STREET": "PORTE D'ANDERLECHT/ANDERLECHTSEPOORT - BLD POINCARE/ POINCARELAAN 27/28/29", "FREEBK": 15, "TOTBS": 25, "ID": 25}}, {"geometry": {"type": "Point", "coordinates": [147193.93164107911, 169889.67721688189]}, "type": "Feature", "properties": {"FREEBS": 21, "NAME": "026 - VAN LINT / VAN LINT", "STATE": "open", "STREET": "VAN LINT - RUE VAN LINT/ VAN LINTSTRAAT 6 - 8", "FREEBK": 4, "TOTBS": 25, "ID": 26}}, {"geometry": {"type": "Point", "coordinates": [146689.98004045032, 169814.32364430465]}, "type": "Feature", "properties": {"FREEBS": 8, "NAME": "027 - SQUARE ALBERT I / ALBERT I SQUARE", "STATE": "open", "STREET": "SQUARE ALBERT I / ALBERT I-SQUARE 25 - 26 - 27", "FREEBK": 17, "TOTBS": 25, "ID": 27}}, {"geometry": {"type": "Point", "coordinates": [147305.79017845818, 170177.95500088483]}, "type": "Feature", "properties": {"FREEBS": 3, "NAME": "028 - CLEMENCEAU / CLEMENCEAU", "STATE": "open", "STREET": "CLEMENCEAU - CHEE DE MONS/ BERGENSE STEENWEG 159-161-163", "FREEBK": 22, "TOTBS": 25, "ID": 28}}, {"geometry": {"type": "Point", "coordinates": [148882.198034787, 171799.17510653473]}, "type": "Feature", "properties": {"FREEBS": 0, "NAME": "029 - BAUDOUIN / BOUDEWIJN", "STATE": "open", "STREET": "BAUDOUIN/BOUDEWIJN - RUE DE LAEKEN / LAKENSESTRAAT", "FREEBK": 25, "TOTBS": 25, "ID": 29}}, {"geometry": {"type": "Point", "coordinates": [148804.25221955052, 171474.59036975913]}, "type": "Feature", "properties": {"FREEBS": 5, "NAME": "030 - LAEKEN / LAKEN", "STATE": "open", "STREET": "LAEKEN/LAKEN - RUE DE LAEKEN (ENTRE N\u00b0 119 ET 109) / LAKENSESTRAAT (TUSSEN N\u00b0 119 EN 109)", "FREEBK": 20, "TOTBS": 25, "ID": 30}}, {"geometry": {"type": "Point", "coordinates": [149433.37672076514, 171100.38700830843]}, "type": "Feature", "properties": {"FREEBS": 7, "NAME": "031 - MUSEE DE LA BD / STRIPMUSEUM", "STATE": "open", "STREET": "MUSEE DE LA BD/STRIPMUSEUM - BOULEVARD PACHECO/PACHECOLAAN", "FREEBK": 18, "TOTBS": 25, "ID": 31}}, {"geometry": {"type": "Point", "coordinates": [148424.8111358537, 171086.45661875606]}, "type": "Feature", "properties": {"FREEBS": 20, "NAME": "032 - DANSAERT / DANSAERT", "STATE": "open", "STREET": "DANSAERT - RUE ANTOINE DANSAERT/ANTOINE DANSAERTSTRAAT 60-62-64", "FREEBK": 5, "TOTBS": 25, "ID": 32}}, {"geometry": {"type": "Point", "coordinates": [149105.82245686909, 170922.22191061825]}, "type": "Feature", "properties": {"FREEBS": 5, "NAME": "033 - MORT SUBITE / MORT SUBITE", "STATE": "open", "STREET": "MORT SUBITE - RUE MONTAGNE AUX-HERBES-POTAGERES (FACE N\u00b0 7)/WARMOESBERG (TEGENOVER N\u00b07)", "FREEBK": 20, "TOTBS": 25, "ID": 33}}, {"geometry": {"type": "Point", "coordinates": [148463.96199593818, 170580.74472619593]}, "type": "Feature", "properties": {"FREEBS": 10, "NAME": "034 - FONTAINAS / FONTAINAS", "STATE": "open", "STREET": "FONTAINAS - BLD ANSPACH N\u00b0180 A 192/ANSPACHLAAN N\u00b0180 TOT 192", "FREEBK": 13, "TOTBS": 23, "ID": 34}}, {"geometry": {"type": "Point", "coordinates": [149243.66689966436, 170601.04935640376]}, "type": "Feature", "properties": {"FREEBS": 20, "NAME": "035 - CANTERSTEEN / KANTERSTEEN", "STATE": "open", "STREET": "CANTERSTEEN/KANTERSTEEN - RUE CANTERSTEEN/KANTERSTEENSTRAAT 41-43-45", "FREEBK": 4, "TOTBS": 28, "ID": 35}}, {"geometry": {"type": "Point", "coordinates": [148783.97169109108, 170524.37569330819]}, "type": "Feature", "properties": {"FREEBS": 0, "NAME": "036 - PLACE ST JEAN / SINT-JANSPLEIN", "STATE": "open", "STREET": "PLACE ST JEAN/SINT-JANSPLEIN - RUE DU LOMBARD/LOMBARDSTRAAT 42", "FREEBK": 24, "TOTBS": 25, "ID": 36}}, {"geometry": {"type": "Point", "coordinates": [148891.77642046462, 169726.31276713964]}, "type": "Feature", "properties": {"FREEBS": 10, "NAME": "037 - POELAERT / POELAERT", "STATE": "open", "STREET": "POELAERT - PLACE POELAERT/POELAERTPLEIN 3", "FREEBK": 15, "TOTBS": 25, "ID": 37}}, {"geometry": {"type": "Point", "coordinates": [148497.45805672943, 169722.18038624246]}, "type": "Feature", "properties": {"FREEBS": 6, "NAME": "038 - JEU DE BALLE / VOSSENPLEIN", "STATE": "open", "STREET": "JEU DE BALLE/VOSSENPLEIN - RUE BLAES/BLAESSTRAAT 135-141", "FREEBK": 14, "TOTBS": 20, "ID": 38}}, {"geometry": {"type": "Point", "coordinates": [148730.58615558303, 169313.31222721469]}, "type": "Feature", "properties": {"FREEBS": 16, "NAME": "039 - HOTEL DES MONNAIES / MUNTHOTEL", "STATE": "open", "STREET": "HOTEL DES MONNAIES/MUNTHOTEL - BLD DE WATERLOO- WATERLOOLAAN 93/94/95/96/98", "FREEBK": 9, "TOTBS": 25, "ID": 39}}, {"geometry": {"type": "Point", "coordinates": [148196.81674334701, 169279.42449898366]}, "type": "Feature", "properties": {"FREEBS": 20, "NAME": "040 - PORTE DE HAL / HALLEPOORT", "STATE": "open", "STREET": "PORTE DE HAL/HALLEPOORT - BOULEVARD DU MIDI/ZUIDLAAN 142", "FREEBK": 5, "TOTBS": 25, "ID": 40}}, {"geometry": {"type": "Point", "coordinates": [149021.17278921042, 172101.50182500295]}, "type": "Feature", "properties": {"FREEBS": 19, "NAME": "041 - SAINT-ROCH/SINT-ROCHUS", "STATE": "open", "STREET": "SAINT ROCH/SINT-ROCHUS - CHAUSSEE D'ANVERS/ANTWERPSELAAN 37", "FREEBK": 6, "TOTBS": 25, "ID": 41}}, {"geometry": {"type": "Point", "coordinates": [147861.33100943026, 170974.74320846796]}, "type": "Feature", "properties": {"FREEBS": 16, "NAME": "042 - PORTE DE NINOVE /NINOOFSEPOORT", "STATE": "open", "STREET": "PORTE DE NINOVE/NINOOFSEPOORT - PLACE DE NINOVE/NINOOFSEPLEIN/SUR BLD DE L'ABATTOIR/OP SLACHTHUISLAAN", "FREEBK": 9, "TOTBS": 25, "ID": 42}}, {"geometry": {"type": "Point", "coordinates": [150404.87531103808, 170538.94879760314]}, "type": "Feature", "properties": {"FREEBS": 0, "NAME": "043 - JOSEPH II / JOZEF II", "STATE": "open", "STREET": "JOSEPH II/JOZEF II - RUE JOSEPH II/JOZEF II-STRAAT", "FREEBK": 25, "TOTBS": 25, "ID": 43}}, {"geometry": {"type": "Point", "coordinates": [150157.33644278048, 170144.14014638215]}, "type": "Feature", "properties": {"FREEBS": 0, "NAME": "044 - CHARLEMAGNE / KAREL DE GROTE", "STATE": "open", "STREET": "CHARLEMAGNE/KAREL DE GROTE - RUE DE LA SCIENCE/WETENSCHAPSSTRAAT 11", "FREEBK": 23, "TOTBS": 25, "ID": 44}}, {"geometry": {"type": "Point", "coordinates": [149202.40501147619, 169184.51830009557]}, "type": "Feature", "properties": {"FREEBS": 4, "NAME": "045 - STEPHANIE / STEFANIA", "STATE": "open", "STREET": "STEPHANIE/STEFANIA - AV LOUISE/LOUIZALAAN 61A-63-65", "FREEBK": 21, "TOTBS": 25, "ID": 45}}, {"geometry": {"type": "Point", "coordinates": [149031.84825906609, 170349.90085414704]}, "type": "Feature", "properties": {"FREEBS": 1, "NAME": "046 - ALBERTINE / ALBERTINA", "STATE": "open", "STREET": "ALBERTINE/ALBERTINA - BLD DE L'EMPEREUR/KEIZERSLAAN 2", "FREEBK": 24, "TOTBS": 25, "ID": 46}}, {"geometry": {"type": "Point", "coordinates": [148478.96592707609, 171591.25240822043]}, "type": "Feature", "properties": {"FREEBS": 1, "NAME": "047 - LES QUAIS / KAAIEN", "STATE": "open", "STREET": "LES QUAIS/KAAIEN - QUAI A LA CHAUX/KALKKAAI 1-2", "FREEBK": 19, "TOTBS": 20, "ID": 47}}, {"geometry": {"type": "Point", "coordinates": [149636.39250247562, 170995.24824007414]}, "type": "Feature", "properties": {"FREEBS": 16, "NAME": "048 - CONGRES / CONGRES", "STATE": "open", "STREET": "CONGRES - RUE ROYALE/KONINGSSTRAAT 144-146-148", "FREEBK": 7, "TOTBS": 23, "ID": 48}}, {"geometry": {"type": "Point", "coordinates": [148760.22993349022, 172346.06286824495]}, "type": "Feature", "properties": {"FREEBS": 7, "NAME": "049 - WILLEBROEK/WILLEBROEK", "STATE": "open", "STREET": "WILLEBROECK/WILLEBROEK - QUAI DE WILLEBROECK/WILLEBROEKKAAI 22 BIS", "FREEBK": 17, "TOTBS": 25, "ID": 49}}, {"geometry": {"type": "Point", "coordinates": [147918.1041828944, 172275.35070814006]}, "type": "Feature", "properties": {"FREEBS": 0, "NAME": "050 - RIBEAUCOURT/RIBAUCOURT", "STATE": "open", "STREET": "RIBEAUCOURT - BLD LEOPOLD II / LEOPOLD II-LAAN 121-123", "FREEBK": 25, "TOTBS": 25, "ID": 50}}, {"geometry": {"type": "Point", "coordinates": [147891.93795825387, 169476.20866255462]}, "type": "Feature", "properties": {"FREEBS": 19, "NAME": "051 - MIDI FONSNY/ZUID FONSNY", "STATE": "open", "STREET": "MIDI FONSNY/ZUID FONSNY - RUE D'ANGLETERRE / ENGELANDSTRAAT", "FREEBK": 6, "TOTBS": 25, "ID": 51}}, {"geometry": {"type": "Point", "coordinates": [148363.56881962129, 172091.64850108977]}, "type": "Feature", "properties": {"FREEBS": 4, "NAME": "052 - SAINCTELETTE/SAINCTELETTE", "STATE": "open", "STREET": "SAINCTELETTE - PLACE SAINCTELETTE/SAINCTELETTEPLEIN", "FREEBK": 21, "TOTBS": 25, "ID": 52}}, {"geometry": {"type": "Point", "coordinates": [147689.22115842489, 169676.52521049976]}, "type": "Feature", "properties": {"FREEBS": 15, "NAME": "053 - GARE DU MIDI / ZUIDSTATION", "STATE": "open", "STREET": "GARE DU MIDI / ZUIDSTATION - PLACE VICTOR HORTA / VICTOR HORTAPLEIN", "FREEBK": 25, "TOTBS": 40, "ID": 53}}, {"geometry": {"type": "Point", "coordinates": [148515.06081912745, 172516.54605205357]}, "type": "Feature", "properties": {"FREEBS": 1, "NAME": "054 - TOUR ET TAXIS/THURN&TAXIS", "STATE": "open", "STREET": "TOUR ET TAXIS/THURN&TAXIS - RUE PICARD/ PICARDSTRAAT 3", "FREEBK": 0, "TOTBS": 25, "ID": 54}}, {"geometry": {"type": "Point", "coordinates": [149819.42982171109, 171427.96746135317]}, "type": "Feature", "properties": {"FREEBS": 4, "NAME": "055 - BOTANIQUE/KRUIDTUIN", "STATE": "open", "STREET": "BOTANIQUE/KRUIDTUIN - AVENUE GALILEE/GALILEELAAN", "FREEBK": 21, "TOTBS": 25, "ID": 55}}, {"geometry": {"type": "Point", "coordinates": [151054.27870444002, 170601.45146489795]}, "type": "Feature", "properties": {"FREEBS": 16, "NAME": "056 - ARCHIMEDE / ARCHIMEDES", "STATE": "open", "STREET": "ARCHIMEDE/ARCHIMEDES - RUE ARCHIMEDE/ARCHIMEDESSTRAAT 58-64", "FREEBK": 8, "TOTBS": 25, "ID": 56}}, {"geometry": {"type": "Point", "coordinates": [150042.51453990259, 171040.06959605776]}, "type": "Feature", "properties": {"FREEBS": 18, "NAME": "057 - MADOU/MADOU", "STATE": "open", "STREET": "MADOU - RUE SCAILQUIN/SCAILQUINSTRAAT", "FREEBK": 3, "TOTBS": 23, "ID": 57}}, {"geometry": {"type": "Point", "coordinates": [149342.93099785902, 172087.99429344758]}, "type": "Feature", "properties": {"FREEBS": 26, "NAME": "058 - GARE DU NORD / NOORDSTATION", "STATE": "open", "STREET": "GARE DU NORD/NOORDSTATION - PLACE DU NORD / NOORDPLAATS", "FREEBK": 9, "TOTBS": 35, "ID": 58}}, {"geometry": {"type": "Point", "coordinates": [150461.94436041848, 171031.19445503689]}, "type": "Feature", "properties": {"FREEBS": 6, "NAME": "059 - PLACE ST-JOSSE/ST JOOSTPLEIN", "STATE": "open", "STREET": "PLACE ST-JOSSE/ST-JOOSTPLEIN  -  RUE WILLEMS (FACE 5 - 11) / WILLEMSSTRAAT (TEGENOVER 5 - 11)", "FREEBK": 18, "TOTBS": 24, "ID": 59}}, {"geometry": {"type": "Point", "coordinates": [149532.02254535604, 171813.54392613936]}, "type": "Feature", "properties": {"FREEBS": 15, "NAME": "060 - ST-LAZARRE/ST LAZARUS", "STATE": "open", "STREET": "ST-LAZARRE/SINT-LAZARUS   -   BLD SAINT-LAZARRE/SINT-LAZARUSLAAN 4 -10", "FREEBK": 10, "TOTBS": 25, "ID": 60}}, {"geometry": {"type": "Point", "coordinates": [150651.46487146654, 170381.014228913]}, "type": "Feature", "properties": {"FREEBS": 1, "NAME": "061 - MAELBEEK / MAALBEEK", "STATE": "open", "STREET": "MAELBEEK/MAALBEEK - CHAUSSEE D'ETTERBEEK/ETTERBEEKSESTEENWEG 15", "FREEBK": 24, "TOTBS": 25, "ID": 61}}, {"geometry": {"type": "Point", "coordinates": [151115.34722413303, 170248.27557202335]}, "type": "Feature", "properties": {"FREEBS": 3, "NAME": "062 - CORTENBERGH / KORTENBERG", "STATE": "open", "STREET": "CORTENBERGH/KORTENBERG - AVENUE DE CORTENBERGH/KORTENBERGLAAN", "FREEBK": 18, "TOTBS": 22, "ID": 62}}, {"geometry": {"type": "Point", "coordinates": [147344.5785656668, 169148.29372538533]}, "type": "Feature", "properties": {"FREEBS": 5, "NAME": "064 - VETERINAIRES / VEEARTSEN", "STATE": "open", "STREET": "VETERINAIRES/VEEARTSEN - RUE DE FRANCE / FRANKRIJKSTRAAT", "FREEBK": 20, "TOTBS": 25, "ID": 64}}, {"geometry": {"type": "Point", "coordinates": [148295.44161493969, 168840.43813074008]}, "type": "Feature", "properties": {"FREEBS": 4, "NAME": "065 - PARVIS DE ST GILLES/ST-GILLISVOORPLEIN", "STATE": "open", "STREET": "PARVIS DE ST GILLES/ST-GILLISVOORPLEIN - CHAUSSEE DE WATERLOO/ WATERLOOSESTEENWEG 65-69", "FREEBK": 21, "TOTBS": 25, "ID": 65}}, {"geometry": {"type": "Point", "coordinates": [150788.38952390174, 170327.97255969699]}, "type": "Feature", "properties": {"FREEBS": 0, "NAME": "066 - SCHUMAN / SCHUMAN", "STATE": "open", "STREET": "SCHUMAN - RUE DE LA LOI/WETSTRAAT 170", "FREEBK": 25, "TOTBS": 25, "ID": 66}}, {"geometry": {"type": "Point", "coordinates": [151174.44439374714, 169926.58130843751]}, "type": "Feature", "properties": {"FREEBS": 16, "NAME": "067 - PARC CINQUANTENAIRE / JUBELPARK", "STATE": "open", "STREET": "PARC CINQUANTENAIRE/JUBELPARK - AVENUE D'AUDERGHEM/OUDERGEMSESTEENWEG 45", "FREEBK": 9, "TOTBS": 25, "ID": 67}}, {"geometry": {"type": "Point", "coordinates": [150801.47485998675, 169985.68735966645]}, "type": "Feature", "properties": {"FREEBS": 12, "NAME": "068 - JEAN REY/JEAN REY", "STATE": "open", "STREET": "JEAN REY - PLACE JEAN REY/JEAN REYPLAATS", "FREEBK": 12, "TOTBS": 25, "ID": 68}}, {"geometry": {"type": "Point", "coordinates": [149650.90103785048, 168572.31824440975]}, "type": "Feature", "properties": {"FREEBS": 22, "NAME": "069 - LESBROUSSART/LESBROUSSART", "STATE": "open", "STREET": "LESBROUSSART - AVENUE LOUISE/LOUIZALAAN 192", "FREEBK": 0, "TOTBS": 22, "ID": 69}}, {"geometry": {"type": "Point", "coordinates": [150189.85533901589, 167519.53951906692]}, "type": "Feature", "properties": {"FREEBS": 11, "NAME": "070 - AURORE/DAGERAAD", "STATE": "open", "STREET": "AURORE/DAGERAAD - AVENUE LOUISE/LOUIZALAAN 440", "FREEBK": 14, "TOTBS": 25, "ID": 70}}, {"geometry": {"type": "Point", "coordinates": [150227.64470526576, 167175.36534647271]}, "type": "Feature", "properties": {"FREEBS": 12, "NAME": "071 - LEGRAND/LEGRAND", "STATE": "open", "STREET": "LEGRAND - AV LOUISE/LOUIZALAAN 525", "FREEBK": 10, "TOTBS": 22, "ID": 71}}, {"geometry": {"type": "Point", "coordinates": [150736.57460092739, 166893.98039576598]}, "type": "Feature", "properties": {"FREEBS": 10, "NAME": "072 - ULB SOLBOSCH / VUB  SOLBOSCH", "STATE": "open", "STREET": "ULB SOLBOSCH / VUB SOLBOSCH - AV. F.ROOSEVELT/F.ROOSEVELTLAAN 19", "FREEBK": 17, "TOTBS": 27, "ID": 72}}, {"geometry": {"type": "Point", "coordinates": [149929.54680202398, 168163.05731313583]}, "type": "Feature", "properties": {"FREEBS": 20, "NAME": "073 - VLEURGAT/VLEURGAT", "STATE": "open", "STREET": "VLEURGAT - AVENUE LOUISE/LOUIZALAAN 300", "FREEBK": 5, "TOTBS": 25, "ID": 73}}, {"geometry": {"type": "Point", "coordinates": [148892.90893698746, 169057.31286198646]}, "type": "Feature", "properties": {"FREEBS": 17, "NAME": "074 - PLACE LOIX/LOIXPLEIN", "STATE": "open", "STREET": "PLACE LOIX/LOIXPLEIN - RUE BERCKMANS/ BERCKMANSSTRAAT 78 - 84", "FREEBK": 7, "TOTBS": 25, "ID": 74}}, {"geometry": {"type": "Point", "coordinates": [148001.56206478013, 168384.78841281403]}, "type": "Feature", "properties": {"FREEBS": 13, "NAME": "075 - GENERAL BARON/GENERAAL BARON", "STATE": "open", "STREET": "GENERAL BARON/GENERAAL BARON - AV DU PARC / PARKLAAN 51 - 55", "FREEBK": 12, "TOTBS": 25, "ID": 75}}, {"geometry": {"type": "Point", "coordinates": [148338.13042867789, 168369.21141700726]}, "type": "Feature", "properties": {"FREEBS": 8, "NAME": "076 - PLACE VAN MEENEN/VAN MEENENPLEIN", "STATE": "open", "STREET": "PLACE VAN MEENEN/VAN MEENENPLEIN - AV PAUL DEJAER (FACE 35 - 39) / PAUL DEJAERLAAN (TEGENOVER 35 - 39)", "FREEBK": 17, "TOTBS": 25, "ID": 76}}, {"geometry": {"type": "Point", "coordinates": [149050.90725701678, 168552.58637716714]}, "type": "Feature", "properties": {"FREEBS": 23, "NAME": "077 - PAUL JANSON/PAUL JANSON", "STATE": "open", "STREET": "PAUL JANSON - CHAUSSEE DE CHARLEROI/ CHARLEROISESTEENWEG 159", "FREEBK": 2, "TOTBS": 25, "ID": 77}}, {"geometry": {"type": "Point", "coordinates": [148793.09265707183, 168141.04873960838]}, "type": "Feature", "properties": {"FREEBS": 24, "NAME": "078 - DUC PETIAUX/DUC PETIAUX", "STATE": "open", "STREET": "DUC PETIAUX - CHAUSSEE DE WATERLOO/ WATERLOOSESTEENWEG 376 - 370", "FREEBK": 0, "TOTBS": 25, "ID": 78}}, {"geometry": {"type": "Point", "coordinates": [150490.60314479933, 170374.43197220378]}, "type": "Feature", "properties": {"FREEBS": 0, "NAME": "079 - LOI / WET", "STATE": "closed", "STREET": "LOI/WET - RUE DE TREVES/TRIERSTRAAT 128-126", "FREEBK": 0, "TOTBS": 25, "ID": 79}}, {"geometry": {"type": "Point", "coordinates": [150566.76439237496, 167156.81718858797]}, "type": "Feature", "properties": {"FREEBS": 15, "NAME": "080 - CERES/CERES", "STATE": "open", "STREET": "CERES - AV. F. ROOSEVELT/F. ROOSEVELTLAAN, 14", "FREEBK": 10, "TOTBS": 25, "ID": 80}}, {"geometry": {"type": "Point", "coordinates": [148200.98798652369, 173320.58318325784]}, "type": "Feature", "properties": {"FREEBS": 5, "NAME": "081 - PONT BOCKSTAEL/BRUG BOCKSTAEL", "STATE": "open", "STREET": "PONT BOCKSTAEL/BRUG BOCKSTAEL - BLD EMILE BOCKSTAEL/EMILE BOCKSTAELLAAN 5", "FREEBK": 20, "TOTBS": 25, "ID": 81}}, {"geometry": {"type": "Point", "coordinates": [148094.94784680125, 173626.86770658568]}, "type": "Feature", "properties": {"FREEBS": 11, "NAME": "082 - PANNENHUIS/PANNENHUIS", "STATE": "open", "STREET": "PANNENHUIS/PANNENHUIS - RUE CHARLES DEMEER/CHARLES DEMEERSTRAAT  71", "FREEBK": 12, "TOTBS": 23, "ID": 82}}, {"geometry": {"type": "Point", "coordinates": [147279.07419749317, 172064.05762018822]}, "type": "Feature", "properties": {"FREEBS": 11, "NAME": "084 - STE ANNE/SINT-ANNA", "STATE": "open", "STREET": "STE ANNE/SINT-ANNA  -  RUE DE L'EGLISE STE ANNE/SINT-ANNAKERKSTRAAT 116", "FREEBK": 9, "TOTBS": 20, "ID": 84}}, {"geometry": {"type": "Point", "coordinates": [147438.20150674274, 171875.48331720848]}, "type": "Feature", "properties": {"FREEBS": 10, "NAME": "085 - ETANGS NOIRS/ZWARTE VIJVERS", "STATE": "open", "STREET": "ETANGS NOIRS /ZWARTE VIJVERS - CHEE DE GAND/STEENWEG OP GENT", "FREEBK": 15, "TOTBS": 25, "ID": 85}}, {"geometry": {"type": "Point", "coordinates": [146890.87196487567, 174010.68709498178]}, "type": "Feature", "properties": {"FREEBS": 0, "NAME": "086 - MAISON COMMUNAL DE JETTE/GEMEENTEHUIS JETTE", "STATE": "closed", "STREET": "MAISON COMMUNALE DE JETTE / GEMEENTEHUIS VAN JETTE - CHAUSSEE DE WEMMEL/WEMMELSESTEENWEG 102", "FREEBK": 0, "TOTBS": 23, "ID": 86}}, {"geometry": {"type": "Point", "coordinates": [146843.86304247283, 173447.13929142151]}, "type": "Feature", "properties": {"FREEBS": 14, "NAME": "087 - MIROIR/SPIEGEL", "STATE": "open", "STREET": "MIROIR/SPIEGEL - AVENUE DE LAEKEN (FACE 36) / LAKENSE LAAN (TEGENOVER 36)", "FREEBK": 11, "TOTBS": 25, "ID": 87}}, {"geometry": {"type": "Point", "coordinates": [147575.79499492649, 173665.1225270899]}, "type": "Feature", "properties": {"FREEBS": 16, "NAME": "088 - WOESTE/WOESTE", "STATE": "open", "STREET": "WOESTE - AVENUE NOTRE DAME DE LOURDES / ONZE-LIEVE-VROUW VAN LOURDESLAAN", "FREEBK": 9, "TOTBS": 25, "ID": 88}}, {"geometry": {"type": "Point", "coordinates": [147266.94248385431, 173424.85067701712]}, "type": "Feature", "properties": {"FREEBS": 0, "NAME": "089 - ATHENEE DE JETTE/ATHENEUM VAN JETTE", "STATE": "closed", "STREET": "ATHENEE DE JETTE/ATHENEUM VAN JETTE - AVENUE DE LEVIS MIREPOIX / DE LEVIS MIREPOIXLAAN 100", "FREEBK": 0, "TOTBS": 24, "ID": 89}}, {"geometry": {"type": "Point", "coordinates": [147047.25422003644, 173008.39719858021]}, "type": "Feature", "properties": {"FREEBS": 6, "NAME": "090 - BROUSTIN/BROUSTIN", "STATE": "open", "STREET": "BROUSTIN - AV DE JETTE/ JETSELAAN 73 - 81", "FREEBK": 11, "TOTBS": 17, "ID": 90}}, {"geometry": {"type": "Point", "coordinates": [147639.28998257825, 173044.2552370429]}, "type": "Feature", "properties": {"FREEBS": 20, "NAME": "091 - BELGICA/BELGICA", "STATE": "open", "STREET": "BELGICA - PLACE WERRIE/ WERRIEPLEIN 24", "FREEBK": 5, "TOTBS": 25, "ID": 91}}, {"geometry": {"type": "Point", "coordinates": [147266.9421811119, 173940.26135886367]}, "type": "Feature", "properties": {"FREEBS": 14, "NAME": "092 - LENOIR/LENOIR", "STATE": "open", "STREET": "LENOIR - BLD DE SMET DE NAEYER/DE SMET DE NAEYERLAAN 187 - 189", "FREEBK": 10, "TOTBS": 24, "ID": 92}}, {"geometry": {"type": "Point", "coordinates": [150873.18673113492, 171135.70593549963]}, "type": "Feature", "properties": {"FREEBS": 14, "NAME": "093 - CLOVIS / CLOVIS", "STATE": "open", "STREET": "CLOVIS/CLOVIS - CHAUSSEE DE LOUVAIN - LEUVENSESTEENWEG 260-264", "FREEBK": 11, "TOTBS": 25, "ID": 93}}, {"geometry": {"type": "Point", "coordinates": [147213.520498236, 170980.0481185196]}, "type": "Feature", "properties": {"FREEBS": 7, "NAME": "094 - DUCHESSE DE BRABANT/HERTOGIN VAN BRABANT", "STATE": "open", "STREET": "DUCHESSE DE BRABANT/HERTOGIN VAN BRABANT - RUE DE BIRMINGHAM / BIRMINGHAMSTRAAT", "FREEBK": 13, "TOTBS": 20, "ID": 94}}, {"geometry": {"type": "Point", "coordinates": [148534.52306885872, 174190.50273853913]}, "type": "Feature", "properties": {"FREEBS": 5, "NAME": "095 - PLACE BOCKSTAEL/BOCKSTAELPLAATS", "STATE": "open", "STREET": "PLACE BOCKSTAEL/BOCKSTAELPLAATS - BLD EMILE BOCKSTAEL/EMILE BOCKSTAELLAAN 254", "FREEBK": 20, "TOTBS": 25, "ID": 95}}, {"geometry": {"type": "Point", "coordinates": [149292.86690500297, 172610.16658052802]}, "type": "Feature", "properties": {"FREEBS": 8, "NAME": "096 - HOTEL PRESIDENT/PRESIDENT HOTEL", "STATE": "open", "STREET": "HOTEL PRESIDENT/PRESIDENT HOTEL - BOULEVARD DU ROI ALBERT II/KONING ALBERT-II LAAN", "FREEBK": 17, "TOTBS": 25, "ID": 96}}, {"geometry": {"type": "Point", "coordinates": [146481.48525580927, 171972.49348339438]}, "type": "Feature", "properties": {"FREEBS": 0, "NAME": "097 - KARREVELD/KARREVELD", "STATE": "closed", "STREET": "KARREVELD - CHAUSSEE DE GAND/ GENTSESTEENWEG 1-3", "FREEBK": 0, "TOTBS": 25, "ID": 97}}, {"geometry": {"type": "Point", "coordinates": [146034.73915635195, 172096.41098349448]}, "type": "Feature", "properties": {"FREEBS": 0, "NAME": "098 - CIMETIERE/KERKHOF", "STATE": "closed", "STREET": "CIMETIERE/KERKHOF - BLD METTEWIE/METTEWIELAAN", "FREEBK": 0, "TOTBS": 20, "ID": 98}}, {"geometry": {"type": "Point", "coordinates": [147865.41366480131, 172734.79786133673]}, "type": "Feature", "properties": {"FREEBS": 7, "NAME": "099 - JUBILE/JUBILE", "STATE": "open", "STREET": "JUBILE - BOULEVARD DU JUBILE/ JUBELFEESTLAAN 79", "FREEBK": 18, "TOTBS": 25, "ID": 99}}, {"geometry": {"type": "Point", "coordinates": [150300.62228012536, 169777.49893127661]}, "type": "Feature", "properties": {"FREEBS": 10, "NAME": "100 - GARE DU LUXEMBOURG/STATION LUXEMBOURG", "STATE": "open", "STREET": "GARE DU LUXEMBOURG/STATION  LUXEMBOURG - RUE DE TREVES / TRIERSTRAAT", "FREEBK": 20, "TOTBS": 30, "ID": 100}}, {"geometry": {"type": "Point", "coordinates": [150091.84818416036, 169627.58044889756]}, "type": "Feature", "properties": {"FREEBS": 0, "NAME": "101 - PARNASSE/PARNASSUS", "STATE": "closed", "STREET": "PARNASSE/PARNASSUS - RUE DU TRONE (DEVANT 111 - 113) / TROONSTRAAT  (N\u00b0 111-113)", "FREEBK": 0, "TOTBS": 25, "ID": 101}}, {"geometry": {"type": "Point", "coordinates": [150495.20304081636, 169485.95432263799]}, "type": "Feature", "properties": {"FREEBS": 22, "NAME": "102 - MUSEUM/MUSEUM", "STATE": "open", "STREET": "MUSEUM - CHAUSSEE DE WAVRE (FACE 229 - 233)  /  WAVERSESTEENWEG (TEGENOVER 229 - 233)", "FREEBK": 3, "TOTBS": 25, "ID": 102}}, {"geometry": {"type": "Point", "coordinates": [149673.34824045331, 169374.91554233711]}, "type": "Feature", "properties": {"FREEBS": 21, "NAME": "103 - ERNEST SOLVAY/ERNEST SOLVAY", "STATE": "open", "STREET": "ERNEST SOLVAY - RUE DE L'ARBRE BENIT/GEWIJDE BOOMSTRAAT 2-4-6", "FREEBK": 4, "TOTBS": 25, "ID": 103}}, {"geometry": {"type": "Point", "coordinates": [149849.17241277415, 169209.38349917345]}, "type": "Feature", "properties": {"FREEBS": 23, "NAME": "104 - FERNAND COCQ/FERNAND COCQ", "STATE": "open", "STREET": "FERNAND COCQ - PLACE FERNAND COCQ (FACE AU 19-23) / FERNAND COCQPLEIN (TEGENOVER 19 - 23)", "FREEBK": 2, "TOTBS": 25, "ID": 104}}, {"geometry": {"type": "Point", "coordinates": [150031.56311112709, 168800.79757353663]}, "type": "Feature", "properties": {"FREEBS": 11, "NAME": "105 - DE HENNIN", "STATE": "open", "STREET": "DE HENNIN -  CHAUSSEE D'IXELLES/ELSENSE STEENWEG 254 - 260", "FREEBK": 7, "TOTBS": 20, "ID": 105}}, {"geometry": {"type": "Point", "coordinates": [150695.56157977422, 168843.23240756802]}, "type": "Feature", "properties": {"FREEBS": 24, "NAME": "106 - GERMOIR/MOUTERIJ", "STATE": "open", "STREET": "GERMOIR/MOUTERIJ - AVENUE DE LA COURONNE/KROONLAAN 92-94-96", "FREEBK": 1, "TOTBS": 25, "ID": 106}}, {"geometry": {"type": "Point", "coordinates": [149315.1159885214, 168580.69132615812]}, "type": "Feature", "properties": {"FREEBS": 25, "NAME": "107 - DEFACQZ/DEFACQZ", "STATE": "open", "STREET": "DEFACQZ - RUE DEFACQZ/ DEFACQZSTRAAT 25-27-29", "FREEBK": 0, "TOTBS": 25, "ID": 107}}, {"geometry": {"type": "Point", "coordinates": [150211.64586099627, 168620.70555095002]}, "type": "Feature", "properties": {"FREEBS": 19, "NAME": "108 - FLAGEY/FLAGEY", "STATE": "open", "STREET": "FLAGEY - PLACE FLAGEY (FACE 11)/EUGENE FLAGEYPLEIN (TEGENOVER 11)", "FREEBK": 6, "TOTBS": 25, "ID": 108}}, {"geometry": {"type": "Point", "coordinates": [149376.01492068314, 168179.77492396906]}, "type": "Feature", "properties": {"FREEBS": 25, "NAME": "109 - CHATELAIN/KASTELEIN", "STATE": "open", "STREET": "CHATELAIN/KASTELEIN - RUE DE L'AQUEDUC /AQUADUCTSTRAAT 115-117-119", "FREEBK": 0, "TOTBS": 25, "ID": 109}}, {"geometry": {"type": "Point", "coordinates": [150960.09878128351, 168507.33135237452]}, "type": "Feature", "properties": {"FREEBS": 21, "NAME": "110 - RODIN/RODIN", "STATE": "open", "STREET": "RODIN - AVENUE DE LA COURONNE (DEVANT 145 D) / KROONLAAN (N\u00b0 145 D)", "FREEBK": 0, "TOTBS": 22, "ID": 110}}, {"geometry": {"type": "Point", "coordinates": [149632.18344943863, 167976.14834646881]}, "type": "Feature", "properties": {"FREEBS": 0, "NAME": "111 - LEEMANS/LEEMANS", "STATE": "closed", "STREET": "LEEMANS - PLACE ALBERT LEEMANS/ALBERT LEEMANSPLEIN 13/14", "FREEBK": 0, "TOTBS": 23, "ID": 111}}, {"geometry": {"type": "Point", "coordinates": [149137.2542723607, 167903.82015277073]}, "type": "Feature", "properties": {"FREEBS": 18, "NAME": "112 - PAGE/EDELKNAAP", "STATE": "open", "STREET": "PAGE-EDELKNAAP  -  CHAUSSEE DE WATERLOO/  WATERLOOSE STEENWEG 440 - 442", "FREEBK": 2, "TOTBS": 20, "ID": 112}}, {"geometry": {"type": "Point", "coordinates": [150425.13077418378, 167734.13730228413]}, "type": "Feature", "properties": {"FREEBS": 7, "NAME": "113 - ABBAYE DE LA CAMBRE / ABDIJ TER KAMEREN", "STATE": "open", "STREET": "ABBAYE DE LA CAMBRE/ABDIJ TER KAMEREN - AVENUE EMILE DURAY (FACE AU N\u00b0 2) /EMILE DURAYLAAN (TEGENOVER N\u00b0 2)", "FREEBK": 13, "TOTBS": 20, "ID": 113}}, {"geometry": {"type": "Point", "coordinates": [151128.20766912386, 167815.51301732752]}, "type": "Feature", "properties": {"FREEBS": 0, "NAME": "114 - DE BECO/DE BECO", "STATE": "closed", "STREET": "DE BECO  -  AVENUE EMILE DE BECO (N\u00b0 128) / EMILE DE BECOLAAN (N\u00b0 128)", "FREEBK": 0, "TOTBS": 20, "ID": 114}}, {"geometry": {"type": "Point", "coordinates": [151142.95253767128, 167482.07066610921]}, "type": "Feature", "properties": {"FREEBS": 19, "NAME": "115 - PETITE SUISSE/KLEIN ZWITSERLAND", "STATE": "open", "STREET": "PETITE SUISSE / KLEIN ZWITSERLAND - PLACE DE LA PETITE SUISSE (FACE 16-18) / KLEIN ZWITSERLANDPLEIN (TEGENOVER 16 - 18)", "FREEBK": 6, "TOTBS": 25, "ID": 115}}, {"geometry": {"type": "Point", "coordinates": [151902.44936940321, 167535.47139260545]}, "type": "Feature", "properties": {"FREEBS": 8, "NAME": "116 - ULB PLAINE", "STATE": "open", "STREET": "ULB PLAINE - BOULEVARD DE LA PLAINE  (ENTREE ULB) / PLEINLAAN (INGANG VUB)", "FREEBK": 17, "TOTBS": 25, "ID": 116}}, {"geometry": {"type": "Point", "coordinates": [151568.29396348158, 167287.9600390913]}, "type": "Feature", "properties": {"FREEBS": 11, "NAME": "117 - CIMETIERE D'IXELLES/BEGRAAFPLAATS ELSENE", "STATE": "open", "STREET": "CIMETIERE D'IXELLES / BEGRAAFPLAATS VAN ELSENE - AVENUE DE L'UNIVERSITE/HOGESCHOOLLAAN 1-3-5", "FREEBK": 14, "TOTBS": 25, "ID": 117}}, {"geometry": {"type": "Point", "coordinates": [150781.36977455596, 167508.74750863574]}, "type": "Feature", "properties": {"FREEBS": 0, "NAME": "118 - BUYL/BUYL", "STATE": "closed", "STREET": "BUYL -  AVENUE ADOLPHE BUYL / ADOLPHE BUYLLAAN 1-3", "FREEBK": 0, "TOTBS": 25, "ID": 118}}, {"geometry": {"type": "Point", "coordinates": [150761.15698640171, 168351.33812796045]}, "type": "Feature", "properties": {"FREEBS": 17, "NAME": "119 - PAQUOT/PACQUOT", "STATE": "open", "STREET": "PAQUOT -  RUE JEAN PAQUOT (44 A 48) /JEAN PAQUOTSTRAAT (44 T.E.M 48)", "FREEBK": 2, "TOTBS": 20, "ID": 119}}, {"geometry": {"type": "Point", "coordinates": [150428.17166892553, 169161.34839933272]}, "type": "Feature", "properties": {"FREEBS": 22, "NAME": "120 - BLYCKAERTS/BLYCKAERTS", "STATE": "open", "STREET": "BLYCKAERTS - PLACE RAYMOND BLYCKAERTS/RAYMOND BLYCKAERTSPLEIN", "FREEBK": 1, "TOTBS": 25, "ID": 120}}, {"geometry": {"type": "Point", "coordinates": [150354.98349457051, 168172.86195169669]}, "type": "Feature", "properties": {"FREEBS": 12, "NAME": "121 - ETANGS / VIJVERS", "STATE": "open", "STREET": "ETANGS / VIJVERS - RUE GUILLAUME STOCQ (FACE AU N\u00b0 1-3-5)/ GUILLAUME STOCQSTRAAT (TEGENOVER N\u00b0 1-3-5)", "FREEBK": 13, "TOTBS": 25, "ID": 121}}, {"geometry": {"type": "Point", "coordinates": [151449.63411195288, 167975.1648833314]}, "type": "Feature", "properties": {"FREEBS": 13, "NAME": "122 - GARE D'ETTERBEEK/STATION VAN ETTERBEEK", "STATE": "open", "STREET": "GARE D'ETTERBEEK/STATION VAN ETTERBEEK - BOULEVARD GENERAL JACQUES/GENERAAL JACQUESLAAN", "FREEBK": 16, "TOTBS": 30, "ID": 122}}, {"geometry": {"type": "Point", "coordinates": [149841.17498097388, 167452.12389358226]}, "type": "Feature", "properties": {"FREEBS": 17, "NAME": "123 - VAN EYCK/VAN EYCK", "STATE": "open", "STREET": "VAN EYCK -  CHAUSSEE DE VLEURGAT (DEVANT 215 - 217) / VLEURGATSESTEENWEG  (N\u00b0 215 - 217)", "FREEBK": 8, "TOTBS": 25, "ID": 123}}, {"geometry": {"type": "Point", "coordinates": [149634.70436922953, 167538.45445801597]}, "type": "Feature", "properties": {"FREEBS": 16, "NAME": "124 - CHARLES GRAUX", "STATE": "open", "STREET": "CHARLES GRAUX - CHAUSSEE DE WATERLOO (DEVANT N\u00b0 585 - 587)/ WATERLOOSESTEENWEG (N\u00b0 585 - 587)", "FREEBK": 9, "TOTBS": 25, "ID": 124}}, {"geometry": {"type": "Point", "coordinates": [148967.84320978535, 167439.42260391079]}, "type": "Feature", "properties": {"FREEBS": 25, "NAME": "125 - GEORGES BRUGMANN/GEORGES BRUGMANN", "STATE": "open", "STREET": "GEORGES BRUGMANN - PLACE GEORGES BRUGMANN/GEORGES BRUGMANNPLEIN N\u00b0 10 - 11", "FREEBK": 0, "TOTBS": 25, "ID": 125}}, {"geometry": {"type": "Point", "coordinates": [150629.94037023929, 169085.9497480616]}, "type": "Feature", "properties": {"FREEBS": 4, "NAME": "127 - GRAY/GRAY", "STATE": "open", "STREET": "GRAY  -  RUE DES DEUX PONTS (FACE 4)/ TWEEBRUGGENSTRAAT (TEGENOVER 4)", "FREEBK": 16, "TOTBS": 20, "ID": 127}}, {"geometry": {"type": "Point", "coordinates": [145809.15592806484, 172925.800686148]}, "type": "Feature", "properties": {"FREEBS": 20, "NAME": "133 - CH\u00c2TEAU/KASTEEL", "STATE": "open", "STREET": "CHATEAU-KASTEEL - AVENUE DU CH\u00c2TEAU/KASTEELLAAN", "FREEBK": 4, "TOTBS": 24, "ID": 133}}, {"geometry": {"type": "Point", "coordinates": [146331.46306587316, 172475.33044364024]}, "type": "Feature", "properties": {"FREEBS": 20, "NAME": "134 - PLACE DE BASTOGNE/BASTENAKEN", "STATE": "open", "STREET": "BASTOGNE/BASTENAKEN - PLACE DE BASTOGNE/BASTENAKENPLEIN", "FREEBK": 4, "TOTBS": 25, "ID": 134}}, {"geometry": {"type": "Point", "coordinates": [150555.66028482473, 173596.76016291976]}, "type": "Feature", "properties": {"FREEBS": 20, "NAME": "135 - PARC LACROIX/LACROIX PARK", "STATE": "open", "STREET": "PARC LACROIX / LACROIX PARK - AV PRINCESSE ELISABETH/PRINSES ELISABETHLAAN", "FREEBK": 5, "TOTBS": 25, "ID": 135}}, {"geometry": {"type": "Point", "coordinates": [150215.074953934, 173270.23804549593]}, "type": "Feature", "properties": {"FREEBS": 12, "NAME": "136 - PAVILLON/PAVILJOEN", "STATE": "open", "STREET": "PAVILLON/PAVILJOEN - PLACE PAVILLON /PAVILJOENPLAATS 92-94-96", "FREEBK": 11, "TOTBS": 24, "ID": 136}}, {"geometry": {"type": "Point", "coordinates": [150306.18533421808, 172914.38214648422]}, "type": "Feature", "properties": {"FREEBS": 3, "NAME": "137 - MAISON COMMUNALE DE SCHAERBEEK", "STATE": "open", "STREET": "MAISON COMMUNALE DE SCHAERBEEK/GEMEENTEHUIS VAN SCHAARBEEK - RUE ROYALE SAINTE MARIE/KONINKLIJKE SINTE-MARIASTRAAT 241-243-245", "FREEBK": 22, "TOTBS": 25, "ID": 137}}, {"geometry": {"type": "Point", "coordinates": [150653.25314483143, 172765.33101334516]}, "type": "Feature", "properties": {"FREEBS": 0, "NAME": "138 - HOUFFALIZE/HOUFFALIZE", "STATE": "closed", "STREET": "HOUFFALIZE - PLACE DE HOUFFALIZE /HOUFFALIZEPLEIN 58", "FREEBK": 0, "TOTBS": 25, "ID": 138}}, {"geometry": {"type": "Point", "coordinates": [149858.39092268507, 172609.79219837487]}, "type": "Feature", "properties": {"FREEBS": 19, "NAME": "139 - LIEDTS/LIEDTS", "STATE": "open", "STREET": "LIEDTS - PLACE LIEDTS (FACE AU 38)/ LIEDTSPLEIN (TEGENOVER 38)", "FREEBK": 6, "TOTBS": 25, "ID": 139}}, {"geometry": {"type": "Point", "coordinates": [150882.59482303183, 172479.94450908527]}, "type": "Feature", "properties": {"FREEBS": 14, "NAME": "140 - AZALEES/AZALEA", "STATE": "open", "STREET": "AZALEES / AZALEA -   AVENUE PAUL DESCHANEL/LAAN FACE/TEGENOVER N\u00b0  6-8", "FREEBK": 11, "TOTBS": 25, "ID": 140}}, {"geometry": {"type": "Point", "coordinates": [149251.14201532514, 172251.64152298123]}, "type": "Feature", "properties": {"FREEBS": 20, "NAME": "141 - GARE DU NORD/NOORDSTATION", "STATE": "open", "STREET": "GARE DU NORD/NOORDSTATION - PLACE SIMON BOLIVAR/ SIMON BOLIVARLAAN", "FREEBK": 15, "TOTBS": 35, "ID": 141}}, {"geometry": {"type": "Point", "coordinates": [151265.37945921242, 171880.99305492733]}, "type": "Feature", "properties": {"FREEBS": 21, "NAME": "142 - BIENFAITEURS/WELDOENERS", "STATE": "open", "STREET": "BIENFAITEURS/WELDOENERS - AVENUE ROGIER / ROGIERLAAN 269/271", "FREEBK": 3, "TOTBS": 24, "ID": 142}}, {"geometry": {"type": "Point", "coordinates": [152754.90732627569, 171870.34424845595]}, "type": "Feature", "properties": {"FREEBS": 4, "NAME": "143 - RTL/RTL", "STATE": "open", "STREET": "RTL  - CHAUSSEE DE LOUVAIN (DVT 770)/ LEUVENSE STEENWEG (N\u00b0 770)", "FREEBK": 21, "TOTBS": 25, "ID": 143}}, {"geometry": {"type": "Point", "coordinates": [149957.16301373355, 171932.11008632556]}, "type": "Feature", "properties": {"FREEBS": 21, "NAME": "144 - SAINTE-MARIE/SINTE-MARIA", "STATE": "open", "STREET": "SAINTE MARIE/SINTE-MARIA - RUE ROYALE/ KONINGSSTRAAT 257 - 259", "FREEBK": 4, "TOTBS": 25, "ID": 144}}, {"geometry": {"type": "Point", "coordinates": [150729.74174302915, 172078.56131520309]}, "type": "Feature", "properties": {"FREEBS": 18, "NAME": "145 - COTEAUX/WIJNHEUVELEN", "STATE": "open", "STREET": "COTEAUX/WIJNHEUVELEN - AVENUE ROGIER / ROGIERLAAN 128", "FREEBK": 7, "TOTBS": 25, "ID": 145}}, {"geometry": {"type": "Point", "coordinates": [152272.00550016572, 172095.37085697334]}, "type": "Feature", "properties": {"FREEBS": 3, "NAME": "146 - LEOPOLD III/LEOPOLD III", "STATE": "open", "STREET": "LEOPOLD III -  BOULEVARD LEOPOLD III / LEOPOLD III-LAAN", "FREEBK": 22, "TOTBS": 25, "ID": 146}}, {"geometry": {"type": "Point", "coordinates": [150238.91572472526, 172387.53926222026]}, "type": "Feature", "properties": {"FREEBS": 17, "NAME": "147 - EMILE MAX LYCEE/LYCEUM EMILE MAX", "STATE": "open", "STREET": "EMILE MAX LYCEE/LYCEUM EMILE MAX - CHAUSSEE D'HAECHT/ HAACHTSESTEENWEG 226 - 230", "FREEBK": 8, "TOTBS": 25, "ID": 147}}, {"geometry": {"type": "Point", "coordinates": [151834.57056877002, 171693.16970828734]}, "type": "Feature", "properties": {"FREEBS": 20, "NAME": "148 - GARE MEISER/MEISER STATION", "STATE": "open", "STREET": "GARE MEISER / MEISER STATION - AVENUE ROGIER/ ROGIERLAAN 377 - 379", "FREEBK": 2, "TOTBS": 22, "ID": 148}}, {"geometry": {"type": "Point", "coordinates": [152438.60834274959, 171757.83072880935]}, "type": "Feature", "properties": {"FREEBS": 13, "NAME": "149 - JULES LEBRUN/JULES LEBRUN", "STATE": "open", "STREET": "JULES LEBRUN - CHAUSSEE DE LOUVAIN (FACE 593) / LEUVENSE STEENWEG (TEGENOVER 593)", "FREEBK": 12, "TOTBS": 25, "ID": 149}}, {"geometry": {"type": "Point", "coordinates": [152091.19793070541, 171584.80844950117]}, "type": "Feature", "properties": {"FREEBS": 14, "NAME": "150 - MEISER/MEISER", "STATE": "open", "STREET": "MEISER - PLACE GENERAL MEISER (FACE 1 - 3) / GENERAAL MEISERPLEIN (TEGENOVER 1 - 3)", "FREEBK": 11, "TOTBS": 25, "ID": 150}}, {"geometry": {"type": "Point", "coordinates": [151671.57258513561, 171458.28380203247]}, "type": "Feature", "properties": {"FREEBS": 12, "NAME": "151 - LOUVAIN 488-494/LEUVEN 488-494", "STATE": "open", "STREET": "LOUVAIN / LEUVEN - CHAUSSEE DE LOUVAIN - LEUVENSESTEENWEG  488-494", "FREEBK": 13, "TOTBS": 25, "ID": 151}}, {"geometry": {"type": "Point", "coordinates": [151311.21812204376, 171332.5866443608]}, "type": "Feature", "properties": {"FREEBS": 16, "NAME": "152 - PLACE DAILLY/DAILLYPLEIN", "STATE": "open", "STREET": "PLACE DAILLY / DAILLYPLEIN - PLACE DAILLY / DAILLYPLEIN 24 - 25", "FREEBK": 9, "TOTBS": 25, "ID": 152}}, {"geometry": {"type": "Point", "coordinates": [150651.31162143371, 171525.90467949118]}, "type": "Feature", "properties": {"FREEBS": 3, "NAME": "153 - SQUARE ARMAND STEURS/ARMAND STEURSSQUARE", "STATE": "open", "STREET": "SQUARE ARMAND STEURS/ARMAND STEURSSQUARE - AVENUE PAUL DESCHANEL (FACE N\u00b0 267 - 269) / PAUL DESCHANELLAAN (TEGENOVER 267 - 269)", "FREEBK": 12, "TOTBS": 15, "ID": 153}}, {"geometry": {"type": "Point", "coordinates": [151945.93802443775, 171205.08567169867]}, "type": "Feature", "properties": {"FREEBS": 25, "NAME": "154 - PLASKY/PLASKY", "STATE": "open", "STREET": "PLASKY - SQUARE EUGENE PLASKY (FACE 100) / EUGENE PLASKYSQUARE (TEGENOVER 100)", "FREEBK": 0, "TOTBS": 25, "ID": 154}}, {"geometry": {"type": "Point", "coordinates": [151725.61015256154, 170750.80997177493]}, "type": "Feature", "properties": {"FREEBS": 23, "NAME": "156 - JAMBLINE DE MEUX/JAMBLINNE DE MEUX", "STATE": "open", "STREET": "JAMBLINE DE MEUX - PLACE JAMBLINNE DE MEUX / JAMBLINNE DE MEUXPLEIN 43 - 44 - 45", "FREEBK": 2, "TOTBS": 25, "ID": 156}}, {"geometry": {"type": "Point", "coordinates": [151229.86856851543, 172556.1069221152]}, "type": "Feature", "properties": {"FREEBS": 7, "NAME": "157 - HELIOTROPES/HELIOTROPEN", "STATE": "open", "STREET": "HELIOTROPES/HELIOTROPEN - BOULEVARD LAMBERMONT /  LAMBERMONTLAAN 374", "FREEBK": 18, "TOTBS": 25, "ID": 157}}, {"geometry": {"type": "Point", "coordinates": [150761.97626436705, 173064.05261808541]}, "type": "Feature", "properties": {"FREEBS": 18, "NAME": "158 - VAN YSENDIJCK:VAN YSENDIJCK", "STATE": "open", "STREET": "VAN YSENDIJCK - AVENUE VOLTAIRE (FACE 6) / VOLTAIRELAAN (TEGENOVER 6)", "FREEBK": 6, "TOTBS": 24, "ID": 158}}, {"geometry": {"type": "Point", "coordinates": [149564.79671865888, 173213.29007124435]}, "type": "Feature", "properties": {"FREEBS": 10, "NAME": "159 - MASUI/MASUI", "STATE": "open", "STREET": "MASUI - AVENUE DE LA REINE / KONINGINNELAAN 153", "FREEBK": 15, "TOTBS": 25, "ID": 159}}, {"geometry": {"type": "Point", "coordinates": [150813.7518020538, 174125.9728376111]}, "type": "Feature", "properties": {"FREEBS": 9, "NAME": "160 - ELISA/ELISA", "STATE": "open", "STREET": "ELISA - PLACE PRINCESSE ELISABETH / PRINSES ELISABETHPLEIN 8 - 19", "FREEBK": 14, "TOTBS": 23, "ID": 160}}, {"geometry": {"type": "Point", "coordinates": [150783.6458708093, 173579.88277636003]}, "type": "Feature", "properties": {"FREEBS": 7, "NAME": "161 - DEMOLDER/DEMOLDER", "STATE": "open", "STREET": "DEMOLDER - AVENUE EUGENE DEMOLDER / EUGENE DEMOLDERLAAN 68", "FREEBK": 18, "TOTBS": 25, "ID": 161}}, {"geometry": {"type": "Point", "coordinates": [151606.5227965278, 172080.54522721283]}, "type": "Feature", "properties": {"FREEBS": 15, "NAME": "163 - CHAZAL/CHAZAL", "STATE": "open", "STREET": "CHAZAL - AVENUE ERNEST CAMBIER (FACE 7)/ ERNEST CAMBIERLAAN (TEGENOVER 7)", "FREEBK": 10, "TOTBS": 25, "ID": 163}}, {"geometry": {"type": "Point", "coordinates": [151201.24305444051, 173029.43187486846]}, "type": "Feature", "properties": {"FREEBS": 23, "NAME": "164 - KENNIS/KENNIS", "STATE": "open", "STREET": "KENNIS - BOULEVARD LAMBERMONT (20 M APRES 284)/LAMBERMONTLAAN   (20 M NA N\u00b0 284)", "FREEBK": 2, "TOTBS": 25, "ID": 164}}, {"geometry": {"type": "Point", "coordinates": [147571.82130494548, 174367.5043657301]}, "type": "Feature", "properties": {"FREEBS": 1, "NAME": "165 - CIMETIERE DE JETTE/ BEGRAAFPLAATS JETTE", "STATE": "open", "STREET": "CIMETIERE DE JETTE/BEGRAAFPLAATS VAN JETTE - BLD DE SMET DE NAEYER (FACE AU 322)/ DE SMET DE NAEYERSTRAAT (TEGENOVER 322)", "FREEBK": 22, "TOTBS": 23, "ID": 165}}, {"geometry": {"type": "Point", "coordinates": [147774.83762590922, 173982.18573646527]}, "type": "Feature", "properties": {"FREEBS": 1, "NAME": "166 - TREF CENTRUM", "STATE": "open", "STREET": "TREF CENTRUM - RUE AMELIE GOMAND 51- 45", "FREEBK": 23, "TOTBS": 25, "ID": 166}}, {"geometry": {"type": "Point", "coordinates": [145858.28379523911, 173188.20266525354]}, "type": "Feature", "properties": {"FREEBS": 0, "NAME": "167 - CHARLES V/KAREL V", "STATE": "closed", "STREET": "CHARLES V/KAREL V - AVENUE CHARLES QUINT/KEIZER KARELLAAN 129-131", "FREEBK": 0, "TOTBS": 25, "ID": 167}}, {"geometry": {"type": "Point", "coordinates": [145391.04402304915, 172890.66274546646]}, "type": "Feature", "properties": {"FREEBS": 17, "NAME": "168 - HOPITAL FRAN\u00c7AIS/FRANS HOSPITAAL", "STATE": "open", "STREET": "HOPITAL FRANCAIS/FRANS HOSPITAAL - AVENUE JOSSE GOFFIN/JOSSE GOFFINSTRAAT 133-135", "FREEBK": 8, "TOTBS": 25, "ID": 168}}, {"geometry": {"type": "Point", "coordinates": [151330.27240619189, 174110.62099790853]}, "type": "Feature", "properties": {"FREEBS": 14, "NAME": "169 - G.EECKHOUD/ G . EEKHOUD", "STATE": "open", "STREET": "EECKHOUD - AVENUE GEORGES EEKHOUD/GEORGES EEKHOUDLAAN 56", "FREEBK": 11, "TOTBS": 25, "ID": 169}}, {"geometry": {"type": "Point", "coordinates": [151170.16123119855, 173795.54481256939]}, "type": "Feature", "properties": {"FREEBS": 11, "NAME": "170 - RIGA/RIGA", "STATE": "open", "STREET": "RIGA/RIGA - SQUARE FRANCOIS RIGA / FRANCOIS RIGASQUARE", "FREEBK": 9, "TOTBS": 20, "ID": 170}}, {"geometry": {"type": "Point", "coordinates": [151642.58254144879, 173536.80247016903]}, "type": "Feature", "properties": {"FREEBS": 0, "NAME": "171 - APOLLO/APOLLO", "STATE": "closed", "STREET": "APOLLO/APOLLO - SQUARE APOLLO / APOLLOSQUARE", "FREEBK": 0, "TOTBS": 25, "ID": 171}}, {"geometry": {"type": "Point", "coordinates": [151368.29553206969, 173265.41757239401]}, "type": "Feature", "properties": {"FREEBS": 19, "NAME": "172 - AEROPOLIS/AEROPOLIS", "STATE": "open", "STREET": "AEROPOLIS - CHAUSSEE D'HAECHT (FACE 586) / HAACHTSESTEENWEG (TEGENOVER 586)", "FREEBK": 6, "TOTBS": 25, "ID": 172}}, {"geometry": {"type": "Point", "coordinates": [151808.93566749716, 172697.33457030356]}, "type": "Feature", "properties": {"FREEBS": 11, "NAME": "173 - BICHON/BICHON", "STATE": "open", "STREET": "BICHON - PLACE BICHON / BICHONPLEIN", "FREEBK": 13, "TOTBS": 24, "ID": 173}}, {"geometry": {"type": "Point", "coordinates": [146310.09048729786, 171506.99124804232]}, "type": "Feature", "properties": {"FREEBS": 15, "NAME": "174 - MENNEKENS/MENNEKENS", "STATE": "open", "STREET": "MENNEKENS - AVENUE BRIGADE PIRON (FACE AUX 80 - 82 - 84)/ BRIGADE PIRONLAAN (TEGENOVER 80 - 82 - 84)", "FREEBK": 7, "TOTBS": 22, "ID": 174}}, {"geometry": {"type": "Point", "coordinates": [146774.70320352074, 171531.05008643679]}, "type": "Feature", "properties": {"FREEBS": 25, "NAME": "175 - BEEKANT", "STATE": "open", "STREET": "BEEKANT - BOULEVARD EDMOND MACHTENS / EDMOND MACHTENSLAAN", "FREEBK": 0, "TOTBS": 25, "ID": 175}}, {"geometry": {"type": "Point", "coordinates": [152808.43286591442, 171329.51942728087]}, "type": "Feature", "properties": {"FREEBS": 19, "NAME": "176 - COLONEL BOURG/KOLONEL BOURG", "STATE": "open", "STREET": "COLONEL BOURG/KOLONEL BOURG - RUE COLONEL BOURG/ KOLONEL BOURGSTRAAT 104", "FREEBK": 6, "TOTBS": 25, "ID": 176}}, {"geometry": {"type": "Point", "coordinates": [151444.40148252202, 171001.12515947036]}, "type": "Feature", "properties": {"FREEBS": 22, "NAME": "177 - CHASSEURS ARDENNAIS/ARDENSE JAGERS", "STATE": "open", "STREET": "CHASSEURS ARDENNAIS/ARDENSE JAGERSPLEIN - RUE DU NOYER 81-87 /NOTELAARSSTRAAT 81-87", "FREEBK": 2, "TOTBS": 25, "ID": 177}}, {"geometry": {"type": "Point", "coordinates": [152367.08678976115, 170959.75469565392]}, "type": "Feature", "properties": {"FREEBS": 23, "NAME": "178 - DIAMANT/DIAMANT", "STATE": "open", "STREET": "DIAMANT/DIAMANT - BOULEVARD AUGUSTE REYERS / AUGUSTE REYERSLAAN", "FREEBK": 2, "TOTBS": 25, "ID": 178}}, {"geometry": {"type": "Point", "coordinates": [152061.19016710768, 169867.57263457403]}, "type": "Feature", "properties": {"FREEBS": 20, "NAME": "179 - CELTES/KELTEN", "STATE": "open", "STREET": "CELTES/KELTEN - AVENUE DE TERVUEREN (FACE AU 17) / TERVURENLAAN (TEGENOVER 17)", "FREEBK": 10, "TOTBS": 30, "ID": 179}}, {"geometry": {"type": "Point", "coordinates": [150902.53099492704, 169701.37401949894]}, "type": "Feature", "properties": {"FREEBS": 3, "NAME": "180 - JOURDAN/JOURDAN", "STATE": "open", "STREET": "JOURDAN/JOURDAN - RUE FROISSART (FACE 3 - 5) / FROISSARTSTRAAT (TEGENOVER 3 - 5)", "FREEBK": 21, "TOTBS": 25, "ID": 180}}, {"geometry": {"type": "Point", "coordinates": [151806.34591932717, 169478.80185052287]}, "type": "Feature", "properties": {"FREEBS": 3, "NAME": "181 - LOUIS TITZ/LOUIS TITZ", "STATE": "open", "STREET": "LOUIS / TITZ - AVENUE DE LA CHASSE/ JACHTLAAN 182 - 184", "FREEBK": 22, "TOTBS": 25, "ID": 181}}, {"geometry": {"type": "Point", "coordinates": [152537.33638624396, 169029.3673899807]}, "type": "Feature", "properties": {"FREEBS": 25, "NAME": "182 - BOILEAU/BOILEAU", "STATE": "open", "STREET": "BOILEAU/BOILEAU - BOULEVARD SAINT MICHEL / SINT-MICHIELSLAAN", "FREEBK": 0, "TOTBS": 25, "ID": 182}}, {"geometry": {"type": "Point", "coordinates": [151522.09356154353, 168834.07109367382]}, "type": "Feature", "properties": {"FREEBS": 18, "NAME": "183 - LA CHASSE/JACHT", "STATE": "open", "STREET": "LA CHASSE/JACHT - AVENUE DES CASERNES/ KAZERNENLAAN 4 - 6", "FREEBK": 7, "TOTBS": 25, "ID": 183}}, {"geometry": {"type": "Point", "coordinates": [151200.01804915507, 169019.08809787966]}, "type": "Feature", "properties": {"FREEBS": 10, "NAME": "184 - PHILIPPE BAUCQ/PHILIPPE BAUCQ", "STATE": "open", "STREET": "PHILIPPE BAUCQ - RUE PHILIPPE BAUCQ / PHILIPPE BAUCQSTRAAT 32 - 38", "FREEBK": 14, "TOTBS": 25, "ID": 184}}, {"geometry": {"type": "Point", "coordinates": [152313.80833959824, 169487.23822015803]}, "type": "Feature", "properties": {"FREEBS": 17, "NAME": "185 - PERE DE DEKEN/PATER DE DEKEN", "STATE": "open", "STREET": "PERE DE DEKEN/PATER DE DEKEN - RUE P\u00c8RE DE DEKEN/ PATER DE DEKENSTRAAT 40", "FREEBK": 8, "TOTBS": 25, "ID": 185}}, {"geometry": {"type": "Point", "coordinates": [151136.83234801338, 169306.73985881824]}, "type": "Feature", "properties": {"FREEBS": 0, "NAME": "186 - ETANGS/VIJVERS", "STATE": "closed", "STREET": "ETANGS/VIJVERS - CHAUSSEE DE WAVRE / WAVERSESTEENWEG 490", "FREEBK": 0, "TOTBS": 20, "ID": 186}}, {"geometry": {"type": "Point", "coordinates": [151998.48675631106, 168464.3621927537]}, "type": "Feature", "properties": {"FREEBS": 15, "NAME": "187 - ARSENAL/ARSENAAL", "STATE": "open", "STREET": "ARSENAL/ARSENAAL - BOULEVARD LOUIS SCHMIDT/ LOUIS SCHMIDTLAAN 2", "FREEBK": 10, "TOTBS": 25, "ID": 187}}, {"geometry": {"type": "Point", "coordinates": [146902.55044144471, 171876.58812925965]}, "type": "Feature", "properties": {"FREEBS": 0, "NAME": "188 - OSSEGHEM/OSSEGHEM", "STATE": "closed", "STREET": "OSSEGHEM -  AVENUE MAHATMA GANDHI/ MAHATMA GANDHILAAN 10", "FREEBK": 0, "TOTBS": 25, "ID": 188}}, {"geometry": {"type": "Point", "coordinates": [151431.41432593856, 169612.28208263684]}, "type": "Feature", "properties": {"FREEBS": 16, "NAME": "189 - PLACE VAN MEYEL/VAN MEYELPLEIN", "STATE": "open", "STREET": "PLACE VAN MEYEL/VAN MEYELPLEIN", "FREEBK": 3, "TOTBS": 20, "ID": 189}}, {"geometry": {"type": "Point", "coordinates": [151541.99886335689, 173077.97747169435]}, "type": "Feature", "properties": {"FREEBS": 0, "NAME": "190 - TERDELT/TERDELT", "STATE": "closed", "STREET": "TERDELT/TERDELT  - PLACE TERDELT / TERDELTPLEIN", "FREEBK": 0, "TOTBS": 22, "ID": 190}}, {"geometry": {"type": "Point", "coordinates": [151055.35483589032, 171508.73202430271]}, "type": "Feature", "properties": {"FREEBS": 16, "NAME": "191 - ARTAN", "STATE": "open", "STREET": "RUE CLAYS", "FREEBK": 7, "TOTBS": 24, "ID": 191}}]}